{
  "Restaurantes": {
   "apiversion":0.1,
      "placesListRestaurantes":[
    {
      "placeId":2,
      "placeName": "Hola Betos la Libertad",
     
          "latitude": 13.6911484,
          "longitude": -89.2382949
       
      },
    {
      "placeId":4,
      "placeName": "La Pampa Argentina, Plaza Volcan",
     
          "latitude": 13.7171856,
          "longitude": -89.2768916
          
    },
    {
      "placeId":6,
      "placeName": "Linda Vista Garden",
      
          "latitude": 13.723988,
          "longitude": -89.2741978
          
    },
    {
      "placeId":8,
      "placeName": "El Zonte",
      
          "latitude": 13.4974163,
          "longitude": -89.44258751
         
    },
    {
      "placeId":10,
      "placeName": "Los Cobanos",
      
          "latitude": 13.5250205,
          "longitude": -89.8054429
         
    },
    {
      "placeId":12,
      "placeName": "Mizata",
       
          "latitude": 13.5104031,
          "longitude": -89.5986808
       
    },
    
    
  ]
  }
}
